[
  {
    "id": "001",
    "name": "The Watford Arms",
    "location": {
      "city": "Glasgow",
      "country": "Scotland",
      "lat": 55.863634,
      "lng": -4.25426
    }
  },
  {
    "id": "002",
    "name": "The Highland Stag",
    "location": {
      "city": "Aberdeen",
      "country": "Scotland",
      "lat": 57.156355,
      "lng": -2.108052
    }
  },
  {
    "id": "003",
    "name": "The Belfast Brew",
    "location": {
      "city": "Birmingham",
      "country": "England",
      "lat": 52.470898,
      "lng": -1.910547
    }
  },
  {
    "id": "004",
    "name": "The Mermaid\u2019s Rest",
    "location": {
      "city": "Liverpool",
      "country": "England",
      "lat": 53.42673,
      "lng": -2.966346
    }
  },
  {
    "id": "005",
    "name": "The Druid\u2019s Tap",
    "location": {
      "city": "Aberdeen",
      "country": "Scotland",
      "lat": 57.132467,
      "lng": -2.121316
    }
  },
  {
    "id": "006",
    "name": "The Fox & Hound",
    "location": {
      "city": "York",
      "country": "England",
      "lat": 53.965709,
      "lng": -1.035306
    }
  },
  {
    "id": "007",
    "name": "The Queen\u2019s Head",
    "location": {
      "city": "Inverness",
      "country": "Scotland",
      "lat": 57.492961,
      "lng": -4.249851
    }
  },
  {
    "id": "008",
    "name": "The Golden Tankard",
    "location": {
      "city": "Sheffield",
      "country": "England",
      "lat": 53.378259,
      "lng": -1.516864
    }
  },
  {
    "id": "009",
    "name": "The Singing Badger",
    "location": {
      "city": "Bath",
      "country": "England",
      "lat": 51.418878,
      "lng": -2.398278
    }
  },
  {
    "id": "010",
    "name": "The Crooked Billet",
    "location": {
      "city": "Birmingham",
      "country": "England",
      "lat": 52.523081,
      "lng": -1.889077
    }
  },
  {
    "id": "011",
    "name": "The Jolly Sailor",
    "location": {
      "city": "Liverpool",
      "country": "England",
      "lat": 53.451436,
      "lng": -3.039098
    }
  },
  {
    "id": "012",
    "name": "The Old Crown",
    "location": {
      "city": "Edinburgh",
      "country": "Scotland",
      "lat": 55.929496,
      "lng": -3.232801
    }
  },
  {
    "id": "013",
    "name": "The Green Dragon",
    "location": {
      "city": "Newcastle",
      "country": "England",
      "lat": 54.967473,
      "lng": -1.643603
    }
  },
  {
    "id": "014",
    "name": "The White Hart",
    "location": {
      "city": "Edinburgh",
      "country": "Scotland",
      "lat": 55.945098,
      "lng": -3.235667
    }
  },
  {
    "id": "015",
    "name": "The Laughing Goat",
    "location": {
      "city": "Birmingham",
      "country": "England",
      "lat": 52.462918,
      "lng": -1.841018
    }
  },
  {
    "id": "016",
    "name": "The Silent Poet",
    "location": {
      "city": "Plymouth",
      "country": "England",
      "lat": 50.326655,
      "lng": -4.166932
    }
  },
  {
    "id": "017",
    "name": "The Rusty Anchor",
    "location": {
      "city": "Sheffield",
      "country": "England",
      "lat": 53.344113,
      "lng": -1.50827
    }
  },
  {
    "id": "018",
    "name": "The Thirsty Scholar",
    "location": {
      "city": "Swansea",
      "country": "Wales",
      "lat": 51.617602,
      "lng": -3.948794
    }
  },
  {
    "id": "019",
    "name": "The Three Bells",
    "location": {
      "city": "Manchester",
      "country": "England",
      "lat": 53.48877,
      "lng": -2.264318
    }
  },
  {
    "id": "020",
    "name": "The Spinning Jenny",
    "location": {
      "city": "Edinburgh",
      "country": "Scotland",
      "lat": 55.916988,
      "lng": -3.171555
    }
  },
  {
    "id": "021",
    "name": "The Dancing Pony",
    "location": {
      "city": "York",
      "country": "England",
      "lat": 53.985051,
      "lng": -1.040939
    }
  },
  {
    "id": "022",
    "name": "The Wandering Minstrel",
    "location": {
      "city": "Bath",
      "country": "England",
      "lat": 51.33379,
      "lng": -2.374031
    }
  },
  {
    "id": "023",
    "name": "The Boar\u2019s Tooth",
    "location": {
      "city": "Sheffield",
      "country": "England",
      "lat": 53.352139,
      "lng": -1.468063
    }
  },
  {
    "id": "024",
    "name": "The King\u2019s Arms",
    "location": {
      "city": "Leeds",
      "country": "England",
      "lat": 53.827541,
      "lng": -1.530117
    }
  },
  {
    "id": "025",
    "name": "The Black Cat",
    "location": {
      "city": "Newcastle",
      "country": "England",
      "lat": 54.996973,
      "lng": -1.629486
    }
  },
  {
    "id": "026",
    "name": "The Iron Kettle",
    "location": {
      "city": "Leeds",
      "country": "England",
      "lat": 53.766711,
      "lng": -1.517818
    }
  },
  {
    "id": "027",
    "name": "The Fiddler\u2019s Elbow",
    "location": {
      "city": "Birmingham",
      "country": "England",
      "lat": 52.484113,
      "lng": -1.934414
    }
  },
  {
    "id": "028",
    "name": "The Anchor\u2019s End",
    "location": {
      "city": "Plymouth",
      "country": "England",
      "lat": 50.405896,
      "lng": -4.13994
    }
  },
  {
    "id": "029",
    "name": "The Shipwright\u2019s Rest",
    "location": {
      "city": "Dundee",
      "country": "Scotland",
      "lat": 56.418355,
      "lng": -2.985875
    }
  },
  {
    "id": "030",
    "name": "The Broken Compass",
    "location": {
      "city": "Leeds",
      "country": "England",
      "lat": 53.764629,
      "lng": -1.540056
    }
  },
  {
    "id": "031",
    "name": "The Noble Goose",
    "location": {
      "city": "Newcastle",
      "country": "England",
      "lat": 54.999999,
      "lng": -1.61552
    }
  },
  {
    "id": "032",
    "name": "The Brass Lantern",
    "location": {
      "city": "Nottingham",
      "country": "England",
      "lat": 52.992294,
      "lng": -1.191014
    }
  },
  {
    "id": "033",
    "name": "The Stag and Crown",
    "location": {
      "city": "Bath",
      "country": "England",
      "lat": 51.337789,
      "lng": -2.32117
    }
  },
  {
    "id": "034",
    "name": "The Sleepy Giant",
    "location": {
      "city": "Edinburgh",
      "country": "Scotland",
      "lat": 55.989298,
      "lng": -3.218457
    }
  },
  {
    "id": "035",
    "name": "The Leaping Trout",
    "location": {
      "city": "Cardiff",
      "country": "Wales",
      "lat": 51.450618,
      "lng": -3.183249
    }
  },
  {
    "id": "036",
    "name": "The Clever Fox",
    "location": {
      "city": "Swansea",
      "country": "Wales",
      "lat": 51.637787,
      "lng": -3.942513
    }
  },
  {
    "id": "037",
    "name": "The Mad Monk",
    "location": {
      "city": "Edinburgh",
      "country": "Scotland",
      "lat": 55.973256,
      "lng": -3.230504
    }
  },
  {
    "id": "038",
    "name": "The Velvet Horn",
    "location": {
      "city": "York",
      "country": "England",
      "lat": 53.911452,
      "lng": -1.107972
    }
  },
  {
    "id": "039",
    "name": "The Winking Owl",
    "location": {
      "city": "Bath",
      "country": "England",
      "lat": 51.368463,
      "lng": -2.317253
    }
  },
  {
    "id": "040",
    "name": "The Dusty Barrel",
    "location": {
      "city": "Liverpool",
      "country": "England",
      "lat": 53.370213,
      "lng": -2.947281
    }
  },
  {
    "id": "041",
    "name": "The Grinning Troll",
    "location": {
      "city": "Newcastle",
      "country": "England",
      "lat": 54.947031,
      "lng": -1.576301
    }
  },
  {
    "id": "042",
    "name": "The Crimson Cloak",
    "location": {
      "city": "Cardiff",
      "country": "Wales",
      "lat": 51.521178,
      "lng": -3.186194
    }
  },
  {
    "id": "043",
    "name": "The Harp and Hen",
    "location": {
      "city": "Nottingham",
      "country": "England",
      "lat": 52.923065,
      "lng": -1.184761
    }
  },
  {
    "id": "044",
    "name": "The Knight\u2019s Folly",
    "location": {
      "city": "Nottingham",
      "country": "England",
      "lat": 52.994778,
      "lng": -1.11302
    }
  },
  {
    "id": "045",
    "name": "The Bell and Whistle",
    "location": {
      "city": "Sheffield",
      "country": "England",
      "lat": 53.35356,
      "lng": -1.50023
    }
  },
  {
    "id": "046",
    "name": "The Jade Griffin",
    "location": {
      "city": "Cardiff",
      "country": "Wales",
      "lat": 51.432642,
      "lng": -3.212751
    }
  },
  {
    "id": "047",
    "name": "The Whistling Pig",
    "location": {
      "city": "London",
      "country": "England",
      "lat": 51.480071,
      "lng": -0.11634
    }
  },
  {
    "id": "048",
    "name": "The Hungry Squire",
    "location": {
      "city": "York",
      "country": "England",
      "lat": 53.926573,
      "lng": -1.081263
    }
  },
  {
    "id": "049",
    "name": "The Blacksmith\u2019s Pride",
    "location": {
      "city": "London",
      "country": "England",
      "lat": 51.485583,
      "lng": -0.082884
    }
  },
  {
    "id": "050",
    "name": "The Quiet Hedgehog",
    "location": {
      "city": "Plymouth",
      "country": "England",
      "lat": 50.344308,
      "lng": -4.109334
    }
  },
  {
    "id": "051",
    "name": "His Majesty's Noggin",
    "location": {
      "city": "Beccles",
      "country": "England",
      "lat": 52.4578,
      "lng": 1.5634
    }
  }
]
